[
    { "label":"Centro de Capacitacion Misional", "latitude":"19.53808", "longitude":"-99.1522582", "dateRange":"6/15 - 7/15" },
    { "label":"Barrio Solano", "latitude":"33.5108047", "longitude":"-112.14018049999999", "dateRange":"7/15 - 2/16" },
    { "label":"Barrio La Joya", "latitude":"33.5019869", "longitude":"-112.24705189999997", "dateRange":"1/16 - 2/16" },
    { "label":"Rama Rio Verde", "latitude":"34.712931", "longitude":"-112.01102860000003", "dateRange":"2/16 - 9/16" },
    { "label":"Sedona Ward", "latitude":"34.8649571", "longitude":"-111.76794050000001", "dateRange":"5/16 - 9/16" },
    { "label":"Spring Valley Ward", "latitude":"34.346951", "longitude":"-112.15556700000002", "dateRange":"7/16 - 9/16" },
    { "label":"Barrio Agua Fria", "latitude":"33.5831964", "longitude":"-112.22401109999998", "dateRange":"9/16 - 2/17" },
    { "label":"Barrio Encanto", "latitude":"33.471871", "longitude":"-112.15866920000002", "dateRange":"2/17 - 6/17" }
]
